{"type":"FeatureCollection","features":[{"type":"Feature","properties":{"marker-color":"#ff9300","marker-size":"medium","marker-symbol":"shop","shopName":"MintShop","target":"teenager","openTime":"11-7","referenceImage":"mint.png"},"geometry":{"type":"Point","coordinates":[14.442028,50.076277]},"id":"1"},{"type":"Feature","properties":{"marker-color":"#ff9300","marker-size":"medium","marker-symbol":"shop","shopName":"Fifty-Fifty","target":"men","openTime":"10-6","referenceImage":"fiftyfifty.jpg"},"geometry":{"type":"Point","coordinates":[14.442918,50.076139]},"id":"2"},{"type":"Feature","properties":{"marker-color":"#ff9300","marker-size":"medium","marker-symbol":"shop","shopName":"WinWinLove","target":"women","openTime":"11-7","referenceImage":"winwinlove.png"},"geometry":{"type":"Point","coordinates":[14.408017,50.087635]},"id":"3"},{"type":"Feature","properties":{"marker-color":"#ff9300","marker-size":"medium","marker-symbol":"shop","shopName":"Bohemian Retro","target":"all-gender, mostly women","openTime":"Wed-Sat 11-17"},"geometry":{"type":"Point","coordinates":[14.450342059135439,50.08292973406596]}},{"type":"Feature","properties":{"marker-color":"#ff9300","marker-size":"medium","marker-symbol":"shop","shopName":"Vnitroblock","target":"teenager/hipster","openTime":"9-22"},"geometry":{"type":"Point","coordinates":[14.449360370635986,50.10314684881118]}},{"type":"Feature","properties":{"marker-color":"#fffb00","marker-size":"medium","marker-symbol":"shop","shpoName":"Rekomando","target":"bookworm/record lover","openTime":"10-18"},"geometry":{"type":"Point","coordinates":[14.415564537048342,50.07433027248411]}},{"type":"Feature","properties":{"marker-color":"#ff2600","marker-size":"medium","marker-symbol":"camera","shopName":"Fotoskoda","target":"photographer(especially analog)","openTime":"9-19"},"geometry":{"type":"Point","coordinates":[14.42503273487091,50.081499466195005]}},{"type":"Feature","properties":{"marker-color":"#ff9300","marker-size":"medium","marker-symbol":"shop","shopName":"recycle with love","target":"women","openTime":"12-19"},"geometry":{"type":"Point","coordinates":[14.431094527244566,50.09830198849147]}},{"type":"Feature","properties":{"marker-color":"#fffb00","marker-size":"medium","marker-symbol":"shop","shopName":"Shakespeare a synové","target":"bookworm","openTime":"11-19"},"geometry":{"type":"Point","coordinates":[14.40866857767105,50.08753865834716]}},{"type":"Feature","properties":{"marker-color":"#ff9300","marker-size":"medium","marker-symbol":"shop","shopName":"crashily","target":"women","openTime":"11-19:30"},"geometry":{"type":"Point","coordinates":[14.434385597705841,50.09815229927965]}},{"type":"Feature","properties":{"marker-color":"#ff9300","marker-size":"medium","marker-symbol":"shop","shopName":"BOHO Vintage concept Store","target":"hipster","openTime":"13-19"},"geometry":{"type":"Point","coordinates":[14.44638580083847,50.0718806239836]}},{"type":"Feature","properties":{"marker-color":"#ff9300","marker-size":"medium","marker-symbol":"gift","shopName":"Parazit Fashion","target":"tourists","openTime":"unclear"},"geometry":{"type":"Point","coordinates":[14.419070184230804,50.08636839841715]}},{"type":"Feature","properties":{"marker-color":"#ff9300","marker-size":"medium","marker-symbol":"shop","shopName":"TEXTILE house","target":"mid-age lady","openTime":"9-19"},"geometry":{"type":"Point","coordinates":[14.44478452205658,50.09247580807511]}},{"type":"Feature","properties":{"marker-color":"#ff9300","marker-size":"medium","marker-symbol":"shop","shopName":"Muj Šatník","target":"unclear","openTime":"10-18"},"geometry":{"type":"Point","coordinates":[14.405597448348997,50.09814369643718]}},{"type":"Feature","properties":{"marker-color":"#ff9300","marker-size":"medium","marker-symbol":"shop","shopName":"SCORO COCO","target":"hipster","openTime":"14-19"},"geometry":{"type":"Point","coordinates":[14.42926526069641,50.09979885488695]}}]}